[{"recommendations":[{"id":253,"source":"NG"}],"place":"Abu Simbel, Egypt","id":0,"lat":22.3372319,"lng":31.625799},{"recommendations":[{"id":69,"source":"NYT"},{"id":296,"source":"The Point Guy"},{"id":73,"source":"TL"}],"place":"Addis Ababa, Ethiopia","id":1,"lat":8.9806034,"lng":38.7577605},{"recommendations":[{"id":284,"source":"Bloomberg"}],"place":"Alaska","id":2,"lat":64.2008413,"lng":-149.4936733},{"recommendations":[{"id":279,"source":"Bloomberg"}],"place":"Andalucía, Spain","id":3,"lat":37.5442706,"lng":-4.7277528},{"recommendations":[{"id":54,"source":"NYT"}],"place":"Antakya, Turkey","id":4,"lat":36.1968031,"lng":36.1612344},{"recommendations":[{"id":198,"source":"AFAR"},{"id":283,"source":"Bloomberg"}],"place":"Antigua","id":5,"lat":17.0746557,"lng":-61.8175207},{"recommendations":[{"id":74,"source":"TL"}],"place":"Arequipa, Peru","id":6,"lat":-16.4090474,"lng":-71.537451},{"recommendations":[{"id":221,"source":"Forbes"}],"place":"Argentina","id":7,"lat":-38.416097,"lng":-63.616672},{"recommendations":[{"id":318,"source":"CNTraveller"}],"place":"Armenia","id":8,"lat":40.069099,"lng":45.038189},{"recommendations":[{"id":126,"source":"LP"}],"place":"Aruba","id":9,"lat":12.52111,"lng":-69.968338},{"recommendations":[{"id":75,"source":"TL"}],"place":"Asheville, North Carolina, US","id":10,"lat":35.5950581,"lng":-82.5514869},{"recommendations":[{"id":262,"source":"NG"},{"id":45,"source":"NYT"}],"place":"Asturias, Spain","id":11,"lat":43.3613953,"lng":-5.8593267},{"recommendations":[{"id":151,"source":"LP"}],"place":"Athens, Greece","id":12,"lat":37.9838096,"lng":23.7275388},{"recommendations":[{"id":64,"source":"NYT"}],"place":"Atlantic Forest, Brazil","id":13,"lat":-23.2260761,"lng":-44.7272217},{"recommendations":[{"id":47,"source":"NYT"}],"place":"Austin, Texas, US","id":14,"lat":30.267153,"lng":-97.7430608},{"recommendations":[{"id":229,"source":"Thrillist"},{"id":76,"source":"TL"}],"place":"Austria","id":15,"lat":47.516231,"lng":14.550072},{"recommendations":[{"id":147,"source":"LP"}],"place":"Azerbaijan","id":16,"lat":40.143105,"lng":47.576927},{"recommendations":[{"id":77,"source":"TL"}],"place":"Baja Sur’s East Cape, Mexico","id":17,"lat":22.8905327,"lng":-109.9167371},{"recommendations":[{"id":232,"source":"Thrillist"}],"place":"Baku, Azerbaijan","id":18,"lat":40.4092617,"lng":49.8670924},{"recommendations":[{"id":287,"source":"Bloomberg"},{"id":346,"source":"TripSavvy"}],"place":"Bangkok, Thailand","id":19,"lat":13.7563309,"lng":100.5017651},{"recommendations":[{"id":78,"source":"TL"}],"place":"Barbados","id":20,"lat":13.193887,"lng":-59.543198},{"recommendations":[{"id":163,"source":"AFAR"}],"place":"Bariloche, Argentina","id":21,"lat":-41.1334722,"lng":-71.3102778},{"recommendations":[{"id":79,"source":"TL"}],"place":"Beijing, China","id":22,"lat":39.9041999,"lng":116.4073963},{"recommendations":[{"id":65,"source":"NYT"}],"place":"Belle-Île, France","id":23,"lat":47.3364213,"lng":-3.1810427},{"recommendations":[{"id":123,"source":"LP"}],"place":"Bhutan","id":24,"lat":27.514162,"lng":90.433601},{"recommendations":[{"id":269,"source":"NG"}],"place":"Białowieża Forest, *Belarus/Poland","id":25,"lat":52.7228852,"lng":23.6555674},{"recommendations":[{"id":370,"source":"Frommer's"},{"id":80,"source":"TL"}],"place":"Big Island, Hawaii","id":26,"lat":19.5429151,"lng":-155.6658568},{"recommendations":[{"id":277,"source":"Bloomberg"}],"place":"Bolivia","id":27,"lat":-16.290154,"lng":-63.588653},{"recommendations":[{"id":371,"source":"Frommer's"},{"id":137,"source":"LP"}],"place":"Bonn, Germany","id":28,"lat":50.73743,"lng":7.0982068},{"recommendations":[{"id":309,"source":"The Point Guy"},{"id":82,"source":"TL"}],"place":"Boston, US","id":29,"lat":42.3600825,"lng":-71.0588801},{"recommendations":[{"id":81,"source":"TL"}],"place":"Botswana","id":30,"lat":-22.328474,"lng":24.684866},{"recommendations":[{"id":202,"source":"Forbes"}],"place":"Brazil","id":31,"lat":-14.235004,"lng":-51.92528},{"recommendations":[{"id":162,"source":"LP"}],"place":"Brazilian Amazon","id":32,"lat":-3.4653053,"lng":-62.2158805},{"recommendations":[{"id":83,"source":"TL"}],"place":"Brisbane, Australia","id":33,"lat":-27.4697707,"lng":153.0251235},{"recommendations":[{"id":207,"source":"Forbes"}],"place":"British Columbia, Canada","id":34,"lat":53.7266683,"lng":-127.6476205},{"recommendations":[{"id":175,"source":"AFAR"},{"id":330,"source":"CNTraveller"},{"id":219,"source":"Forbes"},{"id":22,"source":"NYT"}],"place":"British Virgin Islands","id":35,"lat":18.420695,"lng":-64.639968},{"recommendations":[{"id":276,"source":"Bloomberg"},{"id":144,"source":"LP"}],"place":"Budapest, Hungary","id":36,"lat":47.497912,"lng":19.040235},{"recommendations":[{"id":365,"source":"Frommer's"},{"id":344,"source":"TripSavvy"}],"place":"Buenos Aires, Argentina","id":37,"lat":-34.6036844,"lng":-58.3815591},{"recommendations":[{"id":146,"source":"LP"}],"place":"Buffalo, New York, US","id":38,"lat":42.8864468,"lng":-78.8783689},{"recommendations":[{"id":30,"source":"NYT"},{"id":84,"source":"TL"}],"place":"Caesarea, Israel","id":39,"lat":32.519016,"lng":34.904544},{"recommendations":[{"id":282,"source":"Bloomberg"},{"id":135,"source":"LP"}],"place":"Cairo, Egypt","id":40,"lat":30.0444196,"lng":31.2357116},{"recommendations":[{"id":85,"source":"TL"}],"place":"California’s Central Coast, US","id":41,"lat":36.778261,"lng":-119.4179324},{"recommendations":[{"id":369,"source":"Frommer's"}],"place":"Cambodia","id":42,"lat":12.565679,"lng":104.990963},{"recommendations":[{"id":306,"source":"The Point Guy"}],"place":"Canadian Rockies, Canada","id":43,"lat":54.1521752,"lng":-120.1585339},{"recommendations":[{"id":268,"source":"NG"}],"place":"Canary Islands, Spain","id":44,"lat":28.2915637,"lng":-16.6291304},{"recommendations":[{"id":168,"source":"AFAR"}],"place":"Canouan Island, St. Vincent and the Grenadines","id":45,"lat":12.7254927,"lng":-61.3239372},{"recommendations":[{"id":204,"source":"Forbes"},{"id":299,"source":"The Point Guy"}],"place":"Cape Town, South Africa","id":46,"lat":-33.9248685,"lng":18.4240553},{"recommendations":[{"id":240,"source":"Thrillist"}],"place":"Cape Verde","id":47,"lat":16.5388,"lng":-23.0418},{"recommendations":[{"id":150,"source":"LP"}],"place":"Cape Winelands, South Africa","id":48,"lat":-33.4220698,"lng":19.7591675},{"recommendations":[{"id":159,"source":"LP"}],"place":"Cádiz Province, Spain","id":49,"lat":36.6361857,"lng":-5.8987139},{"recommendations":[{"id":153,"source":"LP"}],"place":"Central Asia Silk Road, *Central Asia","id":50,"lat":45.4506875,"lng":68.8319005},{"recommendations":[{"id":350,"source":"TripSavvy"}],"place":"Central Coast, California, US","id":51,"lat":40.1998777,"lng":-122.2011075},{"recommendations":[{"id":1,"source":"CNN"},{"id":86,"source":"TL"}],"place":"Chilean Lakes District","id":52,"lat":-41.1350496,"lng":-72.8204358},{"recommendations":[{"id":40,"source":"NYT"}],"place":"Chow Kit, Kuala Lumpur, Malaysia","id":53,"lat":3.1599714,"lng":101.6969533},{"recommendations":[{"id":194,"source":"AFAR"},{"id":44,"source":"NYT"}],"place":"Christchurch, New Zealand","id":54,"lat":-43.5320544,"lng":172.6362254},{"recommendations":[{"id":165,"source":"AFAR"},{"id":49,"source":"NYT"}],"place":"Churchill, Manitoba, Canada","id":55,"lat":58.7684112,"lng":-94.164964},{"recommendations":[{"id":33,"source":"NYT"}],"place":"Colorado Springs, US","id":56,"lat":38.8338816,"lng":-104.8213634},{"recommendations":[{"id":2,"source":"CNN"},{"id":58,"source":"NYT"},{"id":353,"source":"TripSavvy"}],"place":"Copenhagen, Denmark","id":57,"lat":55.6760968,"lng":12.5683372},{"recommendations":[{"id":224,"source":"Forbes"},{"id":128,"source":"LP"},{"id":87,"source":"TL"}],"place":"Costa Rica","id":58,"lat":9.748917,"lng":-83.753428},{"recommendations":[{"id":215,"source":"Forbes"}],"place":"Croatia","id":59,"lat":45.1,"lng":15.2000001},{"recommendations":[{"id":325,"source":"CNTraveller"}],"place":"Dakar, Senegal","id":60,"lat":14.716677,"lng":-17.4676861},{"recommendations":[{"id":142,"source":"LP"}],"place":"Denver, Colorado, US","id":61,"lat":39.7392358,"lng":-104.990251},{"recommendations":[{"id":88,"source":"TL"}],"place":"Doha, Qatar","id":62,"lat":25.2854473,"lng":51.5310398},{"recommendations":[{"id":4,"source":"CNN"},{"id":233,"source":"Thrillist"},{"id":89,"source":"TL"}],"place":"Dominica","id":63,"lat":15.414999,"lng":-61.370976},{"recommendations":[{"id":216,"source":"Forbes"}],"place":"Dominican Republic","id":64,"lat":18.735693,"lng":-70.162651},{"recommendations":[{"id":191,"source":"AFAR"},{"id":366,"source":"Frommer's"},{"id":141,"source":"LP"},{"id":245,"source":"Thrillist"},{"id":91,"source":"TL"}],"place":"Dubai, UAE","id":65,"lat":25.2048493,"lng":55.2707828},{"recommendations":[{"id":92,"source":"TL"}],"place":"Durban, South Africa","id":66,"lat":-29.8586804,"lng":31.0218404},{"recommendations":[{"id":311,"source":"The Point Guy"}],"place":"East Cape, Mexico","id":67,"lat":22.8905327,"lng":-109.9167371},{"recommendations":[{"id":143,"source":"LP"}],"place":"East Nusa Tenggara, Indonesia","id":68,"lat":-8.6573819,"lng":121.0793705},{"recommendations":[{"id":324,"source":"CNTraveller"}],"place":"Egadi Islands, Italy","id":69,"lat":37.9590151,"lng":12.2320966},{"recommendations":[{"id":199,"source":"Forbes"},{"id":37,"source":"NYT"}],"place":"Egypt","id":70,"lat":26.820553,"lng":30.802498},{"recommendations":[{"id":362,"source":"Frommer's"}],"place":"Emilia-Romagna, Italy","id":71,"lat":44.5967607,"lng":11.2186396},{"recommendations":[{"id":124,"source":"LP"}],"place":"England, UK","id":72,"lat":52.3555177,"lng":-1.1743197},{"recommendations":[{"id":5,"source":"CNN"}],"place":"Estonia","id":73,"lat":58.595272,"lng":25.0136071},{"recommendations":[{"id":127,"source":"LP"}],"place":"Eswatini","id":74,"lat":-26.522503,"lng":31.465866},{"recommendations":[{"id":289,"source":"Bloomberg"}],"place":"Ethiopia","id":75,"lat":9.145,"lng":40.489673},{"recommendations":[{"id":355,"source":"Frommer's"}],"place":"Extremadura, Spain","id":76,"lat":39.4937392,"lng":-6.0679194},{"recommendations":[{"id":313,"source":"The Point Guy"}],"place":"Fernando de Noronha Island, Brazil","id":77,"lat":-3.8566736,"lng":-32.4295165},{"recommendations":[{"id":178,"source":"AFAR"},{"id":280,"source":"Bloomberg"}],"place":"Finger Lakes, US","id":78,"lat":42.7238165,"lng":-76.9297247},{"recommendations":[{"id":254,"source":"NG"}],"place":"Fort Kochi, India","id":79,"lat":9.9657787,"lng":76.2421147},{"recommendations":[{"id":329,"source":"CNTraveller"}],"place":"Frisian Islands, Denmark","id":80,"lat":54.212956,"lng":6.7539167},{"recommendations":[{"id":6,"source":"CNN"},{"id":321,"source":"CNTraveller"},{"id":136,"source":"LP"},{"id":347,"source":"TripSavvy"}],"place":"Galway, Ireland","id":81,"lat":53.270668,"lng":-9.0567905},{"recommendations":[{"id":72,"source":"NYT"},{"id":305,"source":"The Point Guy"}],"place":"Glacier National Park, US","id":82,"lat":48.7596128,"lng":-113.7870225},{"recommendations":[{"id":364,"source":"Frommer's"}],"place":"Glastonbury, UK","id":83,"lat":51.147427,"lng":-2.718454},{"recommendations":[{"id":259,"source":"NG"}],"place":"Grand Canyon National Park, US","id":84,"lat":36.1069652,"lng":-112.1129972},{"recommendations":[{"id":39,"source":"NYT"}],"place":"Grand Isle, Louisiana, US","id":85,"lat":29.2366172,"lng":-89.9872941},{"recommendations":[{"id":180,"source":"AFAR"},{"id":373,"source":"Frommer's"},{"id":24,"source":"NYT"}],"place":"Greenland","id":86,"lat":71.706936,"lng":-42.604303},{"recommendations":[{"id":270,"source":"NG"}],"place":"Grossglockner High Alpine Road, Austria","id":87,"lat":47.083333,"lng":12.842778},{"recommendations":[{"id":167,"source":"AFAR"}],"place":"Guadeloupe","id":88,"lat":16.265,"lng":-61.551},{"recommendations":[{"id":285,"source":"Bloomberg"},{"id":266,"source":"NG"}],"place":"Guatemala","id":89,"lat":15.783471,"lng":-90.230759},{"recommendations":[{"id":158,"source":"LP"},{"id":247,"source":"NG"}],"place":"Guizhou Province, China","id":90,"lat":26.8429645,"lng":107.2902839},{"recommendations":[{"id":93,"source":"TL"}],"place":"Guyana","id":91,"lat":4.860416,"lng":-58.93018},{"recommendations":[{"id":263,"source":"NG"}],"place":"Göbekli Tepe, Turkey","id":92,"lat":37.2232149,"lng":38.9224215},{"recommendations":[{"id":46,"source":"NYT"}],"place":"Haida Gwaii, British Columbia, Canada","id":93,"lat":53.1013888,"lng":-132.0406057},{"recommendations":[{"id":294,"source":"Bloomberg"}],"place":"Hawaii","id":94,"lat":19.8967662,"lng":-155.5827818},{"recommendations":[{"id":188,"source":"AFAR"}],"place":"Hokkaido, Japan","id":95,"lat":43.2203266,"lng":142.8634737},{"recommendations":[{"id":354,"source":"Frommer's"}],"place":"Indiana, US","id":96,"lat":40.2671941,"lng":-86.1349019},{"recommendations":[{"id":273,"source":"Bloomberg"}],"place":"Ionian Islands, Greece","id":97,"lat":37.9694898,"lng":21.3802372},{"recommendations":[{"id":291,"source":"Bloomberg"},{"id":223,"source":"Forbes"}],"place":"Israel","id":98,"lat":31.046051,"lng":34.851612},{"recommendations":[{"id":169,"source":"AFAR"},{"id":297,"source":"The Point Guy"},{"id":242,"source":"Thrillist"},{"id":95,"source":"TL"}],"place":"Istanbul, Turkey","id":99,"lat":41.0082376,"lng":28.9783589},{"recommendations":[{"id":203,"source":"Forbes"}],"place":"Jaisalmer, India","id":100,"lat":26.9157487,"lng":70.9083443},{"recommendations":[{"id":96,"source":"TL"}],"place":"Jalisco, Mexico","id":101,"lat":20.6595382,"lng":-103.3494376},{"recommendations":[{"id":281,"source":"Bloomberg"},{"id":7,"source":"CNN"}],"place":"Jamaica","id":102,"lat":18.109581,"lng":-77.297508},{"recommendations":[{"id":197,"source":"AFAR"}],"place":"Jasper, Alberta, Canada","id":103,"lat":52.8736786,"lng":-118.0813581},{"recommendations":[{"id":41,"source":"NYT"}],"place":"Jevnaker, Norway","id":104,"lat":60.2406865,"lng":10.4484779},{"recommendations":[{"id":35,"source":"NYT"}],"place":"Jodhpur, India","id":105,"lat":26.2389469,"lng":73.0243094},{"recommendations":[{"id":68,"source":"NYT"}],"place":"Juliana Trail, Slovenia","id":106,"lat":46.337745,"lng":13.750531},{"recommendations":[{"id":258,"source":"NG"}],"place":"Kalahari Desert, *Southern Africa","id":107,"lat":-25.5920214,"lng":21.0937311},{"recommendations":[{"id":265,"source":"NG"}],"place":"Kamchatka Peninsula, Russia","id":108,"lat":56.1327377,"lng":159.5314398},{"recommendations":[{"id":43,"source":"NYT"}],"place":"Kampot, Cambodia","id":109,"lat":10.5942421,"lng":104.1640355},{"recommendations":[{"id":320,"source":"CNTraveller"}],"place":"Kangaroo Island, Australia","id":110,"lat":-35.7752426,"lng":137.2142417},{"recommendations":[{"id":185,"source":"AFAR"},{"id":301,"source":"The Point Guy"}],"place":"Kauai, Hawaii","id":111,"lat":22.0964396,"lng":-159.5261238},{"recommendations":[{"id":25,"source":"NYT"}],"place":"Kimberley Region, Australia","id":112,"lat":-17.3491799,"lng":125.9152074},{"recommendations":[{"id":97,"source":"TL"}],"place":"Klitmøller, Denmark","id":113,"lat":57.0400556,"lng":8.4932873},{"recommendations":[{"id":139,"source":"LP"}],"place":"Kochi, India","id":114,"lat":9.9312328,"lng":76.2673041},{"recommendations":[{"id":34,"source":"NYT"},{"id":303,"source":"The Point Guy"}],"place":"Kraków, Poland","id":115,"lat":50.0646501,"lng":19.9449799},{"recommendations":[{"id":98,"source":"TL"}],"place":"Kuala Lumpur, Malaysia","id":116,"lat":3.139003,"lng":101.686855},{"recommendations":[{"id":161,"source":"LP"}],"place":"Kvarner Gulf, Croatia","id":117,"lat":44.9,"lng":14.6},{"recommendations":[{"id":334,"source":"CNTraveller"},{"id":99,"source":"TL"}],"place":"Kyoto, Japan","id":118,"lat":35.011564,"lng":135.7681489},{"recommendations":[{"id":275,"source":"Bloomberg"},{"id":8,"source":"CNN"},{"id":317,"source":"CNTraveller"}],"place":"Kyrgyzstan","id":119,"lat":41.20438,"lng":74.766098},{"recommendations":[{"id":9,"source":"CNN"}],"place":"Kyushu, Japan","id":120,"lat":32.59,"lng":130.8},{"recommendations":[{"id":138,"source":"LP"}],"place":"La Paz, Bolivia","id":121,"lat":-16.489689,"lng":-68.1192936},{"recommendations":[{"id":38,"source":"NYT"}],"place":"La Paz, Mexico","id":122,"lat":24.1426408,"lng":-110.3127531},{"recommendations":[{"id":226,"source":"Thrillist"}],"place":"Lake Atitlán, Guatemala","id":123,"lat":14.6906713,"lng":-91.2025207},{"recommendations":[{"id":52,"source":"NYT"}],"place":"Lake District, UK","id":124,"lat":54.4608702,"lng":-3.0886254},{"recommendations":[{"id":238,"source":"Thrillist"}],"place":"Lakes Region, Patagonia, Argentina","id":125,"lat":-50.2331136,"lng":-72.6141317},{"recommendations":[{"id":234,"source":"Thrillist"},{"id":338,"source":"TripSavvy"}],"place":"Las Vegas, US","id":126,"lat":36.1699412,"lng":-115.1398296},{"recommendations":[{"id":154,"source":"LP"}],"place":"Le Marche, Italy","id":127,"lat":43.5058744,"lng":12.989615},{"recommendations":[{"id":327,"source":"CNTraveller"}],"place":"Lebanon","id":128,"lat":33.854721,"lng":35.862285},{"recommendations":[{"id":55,"source":"NYT"}],"place":"Leipzig, Germany","id":129,"lat":51.3396955,"lng":12.3730747},{"recommendations":[{"id":32,"source":"NYT"}],"place":"Lesotho","id":130,"lat":-29.609988,"lng":28.233608},{"recommendations":[{"id":130,"source":"LP"}],"place":"Liberia","id":131,"lat":6.428055,"lng":-9.429499},{"recommendations":[{"id":209,"source":"Forbes"},{"id":100,"source":"TL"}],"place":"Lille, France","id":132,"lat":50.62925,"lng":3.057256},{"recommendations":[{"id":56,"source":"NYT"}],"place":"Lima, Peru","id":133,"lat":-12.0463731,"lng":-77.042754},{"recommendations":[{"id":298,"source":"The Point Guy"}],"place":"Lisbon, Portugal","id":134,"lat":38.7222524,"lng":-9.1393366},{"recommendations":[{"id":177,"source":"AFAR"}],"place":"Loire Valley, France","id":135,"lat":47.5532402,"lng":1.0105289},{"recommendations":[{"id":288,"source":"Bloomberg"}],"place":"Lombok, Indonesia","id":136,"lat":-8.650979,"lng":116.3249438},{"recommendations":[{"id":157,"source":"LP"}],"place":"Lord Howe Island, Australia","id":137,"lat":-31.5553263,"lng":159.0821211},{"recommendations":[{"id":190,"source":"AFAR"},{"id":241,"source":"Thrillist"}],"place":"Los Angeles, US","id":138,"lat":34.0522342,"lng":-118.2436849},{"recommendations":[{"id":243,"source":"Thrillist"}],"place":"Lower Zambezi National Park, Zambia","id":139,"lat":-15.3122767,"lng":29.6035495},{"recommendations":[{"id":359,"source":"Frommer's"}],"place":"Maastricht, The Netherlands","id":140,"lat":50.8513682,"lng":5.6909725},{"recommendations":[{"id":225,"source":"Forbes"}],"place":"Madagascar","id":141,"lat":-18.766947,"lng":46.869107},{"recommendations":[{"id":145,"source":"LP"}],"place":"Madhya Pradesh, India","id":142,"lat":22.9734229,"lng":78.6568942},{"recommendations":[{"id":251,"source":"NG"}],"place":"Magdalen Islands, Canada","id":143,"lat":47.3877013,"lng":-61.9011977},{"recommendations":[{"id":156,"source":"LP"},{"id":101,"source":"TL"}],"place":"Maine, US","id":144,"lat":45.253783,"lng":-69.4454689},{"recommendations":[{"id":102,"source":"TL"}],"place":"Malawi","id":145,"lat":-13.254308,"lng":34.301525},{"recommendations":[{"id":211,"source":"Forbes"}],"place":"Malaysia","id":146,"lat":4.210484,"lng":101.975766},{"recommendations":[{"id":260,"source":"NG"}],"place":"Maldives","id":147,"lat":3.202778,"lng":73.22068},{"recommendations":[{"id":103,"source":"TL"}],"place":"Maldonado Department, Uruguay","id":148,"lat":-34.5597932,"lng":-54.8628552},{"recommendations":[{"id":104,"source":"TL"}],"place":"Manchester, UK","id":149,"lat":53.4807593,"lng":-2.2426305},{"recommendations":[{"id":352,"source":"TripSavvy"}],"place":"Melbourne, Australia","id":150,"lat":-37.8136276,"lng":144.9630576},{"recommendations":[{"id":264,"source":"NG"}],"place":"Mendoza Province, Argentina","id":151,"lat":-32.8896247,"lng":-68.8526867},{"recommendations":[{"id":348,"source":"TripSavvy"}],"place":"Michigan, US","id":152,"lat":44.3148443,"lng":-85.6023643},{"recommendations":[{"id":227,"source":"Thrillist"}],"place":"Milwaukee, Wisconsin, US","id":153,"lat":43.0389025,"lng":-87.9064736},{"recommendations":[{"id":61,"source":"NYT"}],"place":"Minorca, Spain","id":154,"lat":39.9496287,"lng":4.1104449},{"recommendations":[{"id":57,"source":"NYT"}],"place":"Molise, Italy","id":155,"lat":41.6738865,"lng":14.7520939},{"recommendations":[{"id":67,"source":"NYT"}],"place":"Mongolia","id":156,"lat":46.862496,"lng":103.846656},{"recommendations":[{"id":271,"source":"Bloomberg"},{"id":345,"source":"TripSavvy"}],"place":"Montenegro","id":157,"lat":42.708678,"lng":19.37439},{"recommendations":[{"id":218,"source":"Forbes"}],"place":"Montreux, Switzerland","id":158,"lat":46.4312213,"lng":6.9106799},{"recommendations":[{"id":131,"source":"LP"}],"place":"Morocco","id":159,"lat":31.791702,"lng":-7.09262},{"recommendations":[{"id":246,"source":"NG"}],"place":"Mostar, Bosnia and Herzegovina","id":160,"lat":43.3437748,"lng":17.8077578},{"recommendations":[{"id":60,"source":"NYT"}],"place":"Mount Kenya","id":161,"lat":-0.1521384,"lng":37.3084079},{"recommendations":[{"id":181,"source":"AFAR"},{"id":278,"source":"Bloomberg"}],"place":"Mozambique","id":162,"lat":-18.665695,"lng":35.529562},{"recommendations":[{"id":308,"source":"The Point Guy"}],"place":"Mumbai, India","id":163,"lat":19.0759837,"lng":72.8776559},{"recommendations":[{"id":192,"source":"AFAR"}],"place":"Namibia","id":164,"lat":-22.95764,"lng":18.49041},{"recommendations":[{"id":249,"source":"NG"}],"place":"National Blue Trail, Hungary","id":165,"lat":47.162494,"lng":19.5033041},{"recommendations":[{"id":31,"source":"NYT"}],"place":"National Parks, China","id":166,"lat":33.2600421,"lng":103.9185994},{"recommendations":[{"id":195,"source":"AFAR"}],"place":"Nepal","id":167,"lat":28.394857,"lng":84.124008},{"recommendations":[{"id":105,"source":"TL"}],"place":"New Brunswick, Canada","id":168,"lat":46.5653163,"lng":-66.4619164},{"recommendations":[{"id":10,"source":"CNN"}],"place":"New Caledonia","id":169,"lat":-20.904305,"lng":165.618042},{"recommendations":[{"id":335,"source":"TripSavvy"}],"place":"New Orleans, US","id":170,"lat":29.9510658,"lng":-90.0715323},{"recommendations":[{"id":214,"source":"Forbes"}],"place":"New Zealand","id":171,"lat":-40.900557,"lng":174.885971},{"recommendations":[{"id":186,"source":"AFAR"},{"id":206,"source":"Forbes"}],"place":"Nikko, Japan","id":172,"lat":36.7198987,"lng":139.6982361},{"recommendations":[{"id":106,"source":"TL"}],"place":"North Island, New Zealand","id":173,"lat":-39.2378365,"lng":175.6023643},{"recommendations":[{"id":125,"source":"LP"},{"id":107,"source":"TL"}],"place":"North Macedonia","id":174,"lat":41.608635,"lng":21.745275},{"recommendations":[{"id":160,"source":"LP"}],"place":"Northeast Argentina","id":175,"lat":-38.416097,"lng":-63.616672},{"recommendations":[{"id":272,"source":"Bloomberg"}],"place":"Northern Italy","id":176,"lat":45.8040862,"lng":8.8401312},{"recommendations":[{"id":372,"source":"Frommer's"}],"place":"Oaxaca, Mexico","id":177,"lat":17.0731842,"lng":-96.7265889},{"recommendations":[{"id":62,"source":"NYT"}],"place":"Oberammergau, Germany","id":178,"lat":47.5980537,"lng":11.0641725},{"recommendations":[{"id":237,"source":"Thrillist"}],"place":"Okanagan Valley, British Columbia, Canada","id":179,"lat":49.8879519,"lng":-119.4960106},{"recommendations":[{"id":108,"source":"TL"}],"place":"Oklahoma City, US","id":180,"lat":35.4675602,"lng":-97.5164276},{"recommendations":[{"id":212,"source":"Forbes"}],"place":"Oman","id":181,"lat":21.4735329,"lng":55.975413},{"recommendations":[{"id":244,"source":"Thrillist"}],"place":"Oregon's North Coast, US","id":182,"lat":46.161351,"lng":-123.9004921},{"recommendations":[{"id":315,"source":"CNTraveller"}],"place":"Pakistan","id":183,"lat":30.375321,"lng":69.345116},{"recommendations":[{"id":332,"source":"CNTraveller"}],"place":"Panama","id":184,"lat":8.537981,"lng":-80.782127},{"recommendations":[{"id":363,"source":"Frommer's"}],"place":"Papua New Guinea","id":185,"lat":-6.314993,"lng":143.95555},{"recommendations":[{"id":11,"source":"CNN"}],"place":"Paraty and Ilha Grande, Brazil","id":186,"lat":-23.1520839,"lng":-44.2289441},{"recommendations":[{"id":196,"source":"AFAR"},{"id":323,"source":"CNTraveller"},{"id":51,"source":"NYT"}],"place":"Paris, France","id":187,"lat":48.856614,"lng":2.3522219},{"recommendations":[{"id":267,"source":"NG"}],"place":"Parma, Italy","id":188,"lat":44.801485,"lng":10.3279036},{"recommendations":[{"id":109,"source":"TL"}],"place":"Paros, Greece","id":189,"lat":37.0853941,"lng":25.1515337},{"recommendations":[{"id":26,"source":"NYT"}],"place":"Paso Robles, California, US","id":190,"lat":35.6368759,"lng":-120.6545022},{"recommendations":[{"id":314,"source":"The Point Guy"}],"place":"Perth, Australia","id":191,"lat":-31.9505269,"lng":115.8604572},{"recommendations":[{"id":256,"source":"NG"}],"place":"Philadelphia, Pennsylvania, US","id":192,"lat":39.9525839,"lng":-75.1652215},{"recommendations":[{"id":367,"source":"Frommer's"}],"place":"Plymouth, Massachusetts, US","id":193,"lat":41.9584457,"lng":-70.6672621},{"recommendations":[{"id":316,"source":"CNTraveller"},{"id":368,"source":"Frommer's"},{"id":63,"source":"NYT"}],"place":"Plymouth, UK","id":194,"lat":50.3754565,"lng":-4.1426565},{"recommendations":[{"id":217,"source":"Forbes"}],"place":"Poland","id":195,"lat":51.919438,"lng":19.145136},{"recommendations":[{"id":183,"source":"AFAR"}],"place":"Ponza, Italy","id":196,"lat":40.9108657,"lng":12.9579459},{"recommendations":[{"id":326,"source":"CNTraveller"},{"id":230,"source":"Thrillist"}],"place":"Portland, Maine, US","id":197,"lat":43.6590993,"lng":-70.2568189},{"recommendations":[{"id":213,"source":"Forbes"}],"place":"Portugal","id":198,"lat":39.399872,"lng":-8.224454},{"recommendations":[{"id":257,"source":"NG"}],"place":"Puebla, Mexico","id":199,"lat":19.0414398,"lng":-98.2062727},{"recommendations":[{"id":235,"source":"Thrillist"}],"place":"Puerto Escondido, Mexico","id":200,"lat":15.8719795,"lng":-97.0767365},{"recommendations":[{"id":174,"source":"AFAR"},{"id":340,"source":"TripSavvy"}],"place":"Puerto Rico","id":201,"lat":18.220833,"lng":-66.590149},{"recommendations":[{"id":328,"source":"CNTraveller"}],"place":"Qingdao, China","id":202,"lat":36.067108,"lng":120.382609},{"recommendations":[{"id":290,"source":"Bloomberg"}],"place":"Queensland, Australia","id":203,"lat":-20.9175738,"lng":142.7027956},{"recommendations":[{"id":110,"source":"TL"}],"place":"Quito, Ecuador","id":204,"lat":-0.1806532,"lng":-78.4678382},{"recommendations":[{"id":331,"source":"CNTraveller"}],"place":"Rabat, Morocco","id":205,"lat":33.9715904,"lng":-6.8498129},{"recommendations":[{"id":111,"source":"TL"}],"place":"Rajasthan, India","id":206,"lat":27.0238036,"lng":74.2179326},{"recommendations":[{"id":59,"source":"NYT"},{"id":339,"source":"TripSavvy"}],"place":"Richmond, Virginia, US","id":207,"lat":37.5407246,"lng":-77.4360481},{"recommendations":[{"id":333,"source":"CNTraveller"},{"id":113,"source":"TL"}],"place":"Rijeka, Croatia","id":208,"lat":45.3270631,"lng":14.442176},{"recommendations":[{"id":189,"source":"AFAR"}],"place":"Rimini, Italy","id":209,"lat":44.0678288,"lng":12.5695158},{"recommendations":[{"id":286,"source":"Bloomberg"}],"place":"Riviera Nayarit, Mexico","id":210,"lat":20.9038717,"lng":-105.4149479},{"recommendations":[{"id":112,"source":"TL"}],"place":"Rome's EUR District, Italy","id":211,"lat":41.8295552,"lng":12.4687635},{"recommendations":[{"id":341,"source":"TripSavvy"}],"place":"Rome, Italy","id":212,"lat":41.9027835,"lng":12.4963655},{"recommendations":[{"id":23,"source":"NYT"}],"place":"Rurrenabaque, Bolivia","id":213,"lat":-14.4296108,"lng":-67.5350917},{"recommendations":[{"id":201,"source":"Forbes"},{"id":114,"source":"TL"},{"id":336,"source":"TripSavvy"}],"place":"Rwanda","id":214,"lat":-1.940278,"lng":29.873888},{"recommendations":[{"id":295,"source":"The Point Guy"}],"place":"Río Negro, Argentina","id":215,"lat":-40.8261434,"lng":-63.0266339},{"recommendations":[{"id":48,"source":"NYT"}],"place":"Sabah, Malaysia","id":216,"lat":5.9788398,"lng":116.0753199},{"recommendations":[{"id":172,"source":"AFAR"}],"place":"Salar de Uyuni, Bolivia","id":217,"lat":-20.1337772,"lng":-67.4891345},{"recommendations":[{"id":319,"source":"CNTraveller"}],"place":"Salvador, Brazil","id":218,"lat":-12.977749,"lng":-38.5016301},{"recommendations":[{"id":133,"source":"LP"},{"id":28,"source":"NYT"}],"place":"Salzburg, Austria","id":219,"lat":47.80949,"lng":13.05501},{"recommendations":[{"id":173,"source":"AFAR"}],"place":"San Antonio, Texas, US","id":220,"lat":29.4241219,"lng":-98.4936282},{"recommendations":[{"id":351,"source":"TripSavvy"}],"place":"Seoul, Korea","id":221,"lat":37.566535,"lng":126.9779692},{"recommendations":[{"id":148,"source":"LP"}],"place":"Serbia","id":222,"lat":44.016521,"lng":21.005859},{"recommendations":[{"id":322,"source":"CNTraveller"}],"place":"Siargao, Philippines","id":223,"lat":9.8481883,"lng":126.0458437},{"recommendations":[{"id":27,"source":"NYT"},{"id":231,"source":"Thrillist"}],"place":"Sicily, Italy","id":224,"lat":37.5999938,"lng":14.0153557},{"recommendations":[{"id":304,"source":"The Point Guy"},{"id":228,"source":"Thrillist"},{"id":115,"source":"TL"}],"place":"Singapore","id":225,"lat":1.352083,"lng":103.819836},{"recommendations":[{"id":205,"source":"Forbes"}],"place":"Slovenia","id":226,"lat":46.151241,"lng":14.995463},{"recommendations":[{"id":116,"source":"TL"}],"place":"Songyang County, China","id":227,"lat":28.448772,"lng":119.481503},{"recommendations":[{"id":374,"source":"Frommer's"}],"place":"Sonoma County, California, US","id":228,"lat":38.5779555,"lng":-122.9888319},{"recommendations":[{"id":179,"source":"AFAR"}],"place":"Southern England, UK","id":229,"lat":50.1635034,"lng":-5.3668998},{"recommendations":[{"id":187,"source":"AFAR"}],"place":"Southern Islands, Japan","id":230,"lat":36.1699999,"lng":138.04},{"recommendations":[{"id":14,"source":"CNN"},{"id":222,"source":"Forbes"},{"id":117,"source":"TL"}],"place":"Sri Lanka","id":231,"lat":7.873054,"lng":80.771797},{"recommendations":[{"id":210,"source":"Forbes"},{"id":118,"source":"TL"}],"place":"St Bart’s","id":232,"lat":17.9,"lng":-62.833333},{"recommendations":[{"id":349,"source":"TripSavvy"}],"place":"St. Louis, US","id":233,"lat":38.6270025,"lng":-90.1994042},{"recommendations":[{"id":13,"source":"CNN"}],"place":"St. Petersburg, Russia","id":234,"lat":59.9342802,"lng":30.3350986},{"recommendations":[{"id":310,"source":"The Point Guy"}],"place":"Stockholm, Sweden","id":235,"lat":59.3293235,"lng":18.0685808},{"recommendations":[{"id":12,"source":"CNN"}],"place":"São Tomé and Príncipe","id":236,"lat":0.18636,"lng":6.613081},{"recommendations":[{"id":220,"source":"Forbes"}],"place":"Tahiti, French Polynesia","id":237,"lat":-17.6509195,"lng":-149.4260421},{"recommendations":[{"id":119,"source":"TL"}],"place":"Taiwan’s Mountains","id":238,"lat":24.4579371,"lng":121.2583318},{"recommendations":[{"id":53,"source":"NYT"}],"place":"Tajikistan","id":239,"lat":38.861034,"lng":71.276093},{"recommendations":[{"id":239,"source":"Thrillist"}],"place":"Tallinn, Estonia","id":240,"lat":59.4369608,"lng":24.7535747},{"recommendations":[{"id":302,"source":"The Point Guy"}],"place":"Tangier, Morocco","id":241,"lat":35.7594651,"lng":-5.8339543},{"recommendations":[{"id":261,"source":"NG"},{"id":120,"source":"TL"}],"place":"Tasmania, Australia","id":242,"lat":-41.4545196,"lng":145.9706647},{"recommendations":[{"id":121,"source":"TL"}],"place":"Tbilisi, Georgia","id":243,"lat":41.7151377,"lng":44.827096},{"recommendations":[{"id":250,"source":"NG"}],"place":"Telč, Czechia","id":244,"lat":49.1832383,"lng":15.4542731},{"recommendations":[{"id":312,"source":"The Point Guy"}],"place":"The Albanian Riviera","id":245,"lat":40.1509656,"lng":19.6416121},{"recommendations":[{"id":356,"source":"Frommer's"}],"place":"The Ausangate Trek, Peru","id":246,"lat":-13.7908333,"lng":-71.2325},{"recommendations":[{"id":166,"source":"AFAR"},{"id":361,"source":"Frommer's"},{"id":42,"source":"NYT"}],"place":"The Bahamas","id":247,"lat":25.03428,"lng":-77.39628},{"recommendations":[{"id":3,"source":"CNN"}],"place":"The Dead Sea, Israel","id":248,"lat":31.5590287,"lng":35.4731895},{"recommendations":[{"id":164,"source":"AFAR"}],"place":"The Dolomites, Südtirol, Italy","id":249,"lat":46.4102117,"lng":11.8440351},{"recommendations":[{"id":90,"source":"TL"}],"place":"The Douro River, *Portugal/Spain","id":250,"lat":41.5012768,"lng":-5.5122932},{"recommendations":[{"id":193,"source":"AFAR"}],"place":"The Grampians, Australia","id":251,"lat":-37.2108819,"lng":142.3979571},{"recommendations":[{"id":94,"source":"TL"}],"place":"The Great Lakes, US","id":252,"lat":45.0522366,"lng":-82.4846115},{"recommendations":[{"id":200,"source":"Forbes"}],"place":"The Greek Islands, Greece","id":253,"lat":36.3931562,"lng":25.4615092},{"recommendations":[{"id":129,"source":"LP"}],"place":"The Netherlands","id":254,"lat":52.132633,"lng":5.291266},{"recommendations":[{"id":182,"source":"AFAR"}],"place":"The Pantanal, Brazil","id":255,"lat":-19.614687,"lng":-56.7222292},{"recommendations":[{"id":358,"source":"Frommer's"}],"place":"The Poles, *World","id":256,"lat":-82.862752,"lng":135},{"recommendations":[{"id":155,"source":"LP"},{"id":248,"source":"NG"}],"place":"Tohoku, Japan","id":257,"lat":39.1362124,"lng":141.1499861},{"recommendations":[{"id":357,"source":"Frommer's"},{"id":29,"source":"NYT"},{"id":300,"source":"The Point Guy"},{"id":236,"source":"Thrillist"}],"place":"Tokyo, Japan","id":258,"lat":35.6761919,"lng":139.6503106},{"recommendations":[{"id":176,"source":"AFAR"}],"place":"Toronto, Ontario, Canada","id":259,"lat":43.653226,"lng":-79.3831843},{"recommendations":[{"id":70,"source":"NYT"}],"place":"Transylvanian Alps, Romania","id":260,"lat":45.5,"lng":24.25},{"recommendations":[{"id":184,"source":"AFAR"}],"place":"Trondheim, Norway","id":261,"lat":63.4305149,"lng":10.3950528},{"recommendations":[{"id":343,"source":"TripSavvy"}],"place":"Tucson, Arizona, US","id":262,"lat":32.2226066,"lng":-110.9747108},{"recommendations":[{"id":15,"source":"CNN"},{"id":149,"source":"LP"}],"place":"Tunisia","id":263,"lat":33.886917,"lng":9.537499},{"recommendations":[{"id":122,"source":"TL"}],"place":"Turks and Caicos","id":264,"lat":21.694025,"lng":-71.797928},{"recommendations":[{"id":208,"source":"Forbes"}],"place":"UAE","id":265,"lat":23.424076,"lng":53.847818},{"recommendations":[{"id":307,"source":"The Point Guy"}],"place":"US Virgin Islands","id":266,"lat":18.335765,"lng":-64.896335},{"recommendations":[{"id":50,"source":"NYT"}],"place":"Uganda","id":267,"lat":1.373333,"lng":32.290275},{"recommendations":[{"id":71,"source":"NYT"}],"place":"Urbino, Italy","id":268,"lat":43.7262567,"lng":12.6365633},{"recommendations":[{"id":132,"source":"LP"}],"place":"Uruguay","id":269,"lat":-32.522779,"lng":-55.765835},{"recommendations":[{"id":66,"source":"NYT"}],"place":"Val d’Aran, Spain","id":270,"lat":42.7439754,"lng":0.7913227},{"recommendations":[{"id":170,"source":"AFAR"},{"id":16,"source":"CNN"}],"place":"Vancouver Island, British Columbia, Canada","id":271,"lat":49.6506376,"lng":-125.4493906},{"recommendations":[{"id":140,"source":"LP"}],"place":"Vancouver, British Columbia, Canada","id":272,"lat":49.2827291,"lng":-123.1207375},{"recommendations":[{"id":171,"source":"AFAR"}],"place":"Veneto, Italy","id":273,"lat":45.4414662,"lng":12.3152595},{"recommendations":[{"id":342,"source":"TripSavvy"}],"place":"Victoria, British Columbia, Canada","id":274,"lat":48.4284207,"lng":-123.3656444},{"recommendations":[{"id":252,"source":"NG"}],"place":"Wales Way, UK","id":275,"lat":53.297029,"lng":-3.8029},{"recommendations":[{"id":17,"source":"CNN"},{"id":134,"source":"LP"},{"id":21,"source":"NYT"},{"id":337,"source":"TripSavvy"}],"place":"Washington DC, US","id":276,"lat":38.9071923,"lng":-77.0368707},{"recommendations":[{"id":292,"source":"Bloomberg"}],"place":"West Hollywood, US","id":277,"lat":34.0900091,"lng":-118.3617443},{"recommendations":[{"id":36,"source":"NYT"}],"place":"Western Sweden","id":278,"lat":60.128161,"lng":18.643501},{"recommendations":[{"id":18,"source":"CNN"}],"place":"Wuppertal, Germany","id":279,"lat":51.2562128,"lng":7.1507636},{"recommendations":[{"id":19,"source":"CNN"}],"place":"Wyoming, US","id":280,"lat":43.0759678,"lng":-107.2902839},{"recommendations":[{"id":274,"source":"Bloomberg"}],"place":"Yosemite, US","id":281,"lat":37.8651011,"lng":-119.5383294},{"recommendations":[{"id":360,"source":"Frommer's"},{"id":255,"source":"NG"}],"place":"Zakouma National Park, Chad","id":282,"lat":10.8916682,"lng":19.8209308},{"recommendations":[{"id":20,"source":"CNN"}],"place":"Zambia","id":283,"lat":-13.133897,"lng":27.849332},{"recommendations":[{"id":152,"source":"LP"}],"place":"Zanzibar, Tanzania","id":284,"lat":-6.165193,"lng":39.1989144},{"recommendations":[{"id":293,"source":"Bloomberg"}],"place":"Zimbabwe","id":285,"lat":-19.015438,"lng":29.154857}]